[
	{
		"ID": "1",
		"LNG": "115.934748",
		"LAT": "39.739503",
		"NAME": "橡胶二厂",
		"PRODUCT": "橡胶"
	},
	{
		"ID": "2",
		"LNG": "115.934837",
		"LAT": "39.743872",
		"NAME": "橡胶一厂",
		"PRODUCT": "橡胶"
	},
	{
		"ID": "3",
		"LNG": "115.940102",
		"LAT": "39.755785",
		"NAME": "炼油厂",
		"PRODUCT": "汽油、柴油"
	},
	{
		"ID": "4",
		"LNG": "115.986662",
		"LAT": "39.733522",
		"NAME": "化工八厂",
		"PRODUCT": "聚酯"
	},
	{
		"ID": "5",
		"LNG": "115.962946",
		"LAT": "39.748558",
		"NAME": "化工二厂",
		"PRODUCT": "聚丙烯，聚苯乙烯"
	},
	{
		"ID": "6",
		"LNG": "115.974229",
		"LAT": "39.746395",
		"NAME": "化工三厂",
		"PRODUCT": "苯酚、丙酮"
	},
	{
		"ID": "7",
		"LNG": "115.988618",
		"LAT": "39.735882",
		"NAME": "化工六厂",
		"PRODUCT": "聚乙烯"
	},
	{
		"ID": "8",
		"LNG": "115.98084",
		"LAT": "39.731311",
		"NAME": "化工七厂",
		"PRODUCT": "苯"
	},
	{
		"ID": "9",
		"LNG": "115.973852",
		"LAT": "39.735761",
		"NAME": "化工一厂",
		"PRODUCT": "塑料"
	},
	{
		"ID": "10",
		"LNG": "115.964815",
		"LAT": "39.760374",
		"NAME": "二热力",
		"PRODUCT": ""
	},
	{
		"ID": "11",
		"LNG": "115.956119",
		"LAT": "39.761982",
		"NAME": "北罐区",
		"PRODUCT": ""
	},
	{
		"ID": "12",
		"LNG": "115.94534",
		"LAT": "39.74645",
		"NAME": "西罐区",
		"PRODUCT": ""
	},
	{
		"ID": "13",
		"LNG": "115.946633",
		"LAT": "39.755492",
		"NAME": "储运一厂",
		"PRODUCT": ""
	}
]